{
  "A": [
    { "station": "Nemocnice Motol", "coordinates": [14.344611, 50.075833] },
    { "station": "Petřiny", "coordinates": [14.337778, 50.087222] },
    { "station": "Nádraží Veleslavín", "coordinates": [14.320833, 50.095278] },
    { "station": "Bořislavka", "coordinates": [14.354444, 50.099444] },
    { "station": "Dejvická", "coordinates": [14.393611, 50.100833] },
    { "station": "Hradčanská", "coordinates": [14.404167, 50.097778] },
    { "station": "Malostranská", "coordinates": [14.410833, 50.090556] },
    { "station": "Staroměstská", "coordinates": [14.417778, 50.088333] },
    { "station": "Můstek", "coordinates": [14.424167, 50.084722] },
    { "station": "Muzeum", "coordinates": [14.430556, 50.079444] },
    { "station": "Náměstí Míru", "coordinates": [14.437778, 50.075278] },
    { "station": "Jiřího z Poděbrad", "coordinates": [14.450833, 50.077778] },
    { "station": "Flora", "coordinates": [14.461667, 50.078889] },
    { "station": "Želivského", "coordinates": [14.471111, 50.078333] },
    { "station": "Strašnická", "coordinates": [14.491111, 50.076667] },
    { "station": "Skalka", "coordinates": [14.507500, 50.068889] },
    { "station": "Depo Hostivař", "coordinates": [14.515278, 50.075000] }
  ],

  "B": [
    { "station": "Zličín", "coordinates": [14.287778, 50.053333] },
    { "station": "Stodůlky", "coordinates": [14.306944, 50.047222] },
    { "station": "Luka", "coordinates": [14.322778, 50.045278] },
    { "station": "Lužiny", "coordinates": [14.331944, 50.045833] },
    { "station": "Hůrka", "coordinates": [14.343611, 50.047222] },
    { "station": "Nové Butovice", "coordinates": [14.352500, 50.047500] },
    { "station": "Jinonice", "coordinates": [14.371944, 50.054167] },
    { "station": "Radlická", "coordinates": [14.390556, 50.058611] },
    { "station": "Smíchovské nádraží", "coordinates": [14.404722, 50.061111] },
    { "station": "Anděl", "coordinates": [14.403611, 50.070556] },
    { "station": "Karlovo náměstí", "coordinates": [14.418056, 50.075278] },
    { "station": "Národní třída", "coordinates": [14.421944, 50.081111] },
    { "station": "Můstek", "coordinates": [14.424167, 50.084722] },
    { "station": "Náměstí Republiky", "coordinates": [14.429722, 50.088056] },
    { "station": "Florenc", "coordinates": [14.439444, 50.090278] },
    { "station": "Křižíkova", "coordinates": [14.451667, 50.092500] },
    { "station": "Invalidovna", "coordinates": [14.463333, 50.097222] },
    { "station": "Palmovka", "coordinates": [14.474444, 50.103056] },
    { "station": "Českomoravská", "coordinates": [14.490833, 50.106111] },
    { "station": "Vysočanská", "coordinates": [14.501944, 50.110833] },
    { "station": "Kolbenova", "coordinates": [14.515833, 50.110278] },
    { "station": "Hloubětín", "coordinates": [14.537222, 50.106944] },
    { "station": "Rajská zahrada", "coordinates": [14.560833, 50.106667] },
    { "station": "Černý Most", "coordinates": [14.577222, 50.109722] }
  ],

  "C": [
    { "station": "Letňany", "coordinates": [14.516111, 50.126389] },
    { "station": "Prosek", "coordinates": [14.492500, 50.118056] },
    { "station": "Střížkov", "coordinates": [14.485833, 50.126667] },
    { "station": "Ládví", "coordinates": [14.469444, 50.126111] },
    { "station": "Kobylisy", "coordinates": [14.459444, 50.124167] },
    { "station": "Nádraží Holešovice", "coordinates": [14.439722, 50.110833] },
    { "station": "Vltavská", "coordinates": [14.438056, 50.099444] },
    { "station": "Florenc", "coordinates": [14.439444, 50.090278] },
    { "station": "Hlavní nádraží", "coordinates": [14.434722, 50.083889] },
    { "station": "Muzeum", "coordinates": [14.430556, 50.079444] },
    { "station": "I. P. Pavlova", "coordinates": [14.429167, 50.075833] },
    { "station": "Vyšehrad", "coordinates": [14.432222, 50.065556] },
    { "station": "Pražského povstání", "coordinates": [14.434722, 50.058611] },
    { "station": "Pankrác", "coordinates": [14.438889, 50.051667] },
    { "station": "Budějovická", "coordinates": [14.448611, 50.044444] },
    { "station": "Kačerov", "coordinates": [14.458333, 50.041111] },
    { "station": "Roztyly", "coordinates": [14.477222, 50.037778] },
    { "station": "Chodov", "coordinates": [14.489722, 50.031944] },
    { "station": "Opatov", "coordinates": [14.507222, 50.028611] },
    { "station": "Háje", "coordinates": [14.527778, 50.030833] }
  ]
}
